[
  {
    "id": "3",
    "name": "Evangelist Deliverance Holiness Church",
    "coordinates": { "lat": 27.4471, "lng": -80.3438 },
    "distance": "1.2",
    "address": "2425 Okeechobee Road",
    "city": "Fort Pierce",
    "state": "FL",
    "zip": "34950",
    "country": "United States",
    "phone": "772-672-0565",
    "directionsUrl": "https://www.google.com/maps/dir//2425+Okeechobee+Road,+Fort+Pierce,+FL",
    "hours": "1st & 3rd Thursday 12pm - 3pm",
    "programs": ["pantry"]
  },
  {
    "id": "4",
    "name": "Faith Temple Community Development Center",
    "coordinates": { "lat": 27.4455, "lng": -80.3601 },
    "distance": "1.3",
    "address": "2805 Avenue T",
    "city": "Fort Pierce",
    "state": "FL",
    "zip": "34947",
    "country": "United States",
    "phone": "772-569-2937",
    "directionsUrl": "https://www.google.com/maps/dir//2805+Avenue+T,+Fort+Pierce,+FL",
    "hours": "2nd & 3rd Thursday of each month 9am - 12pm",
    "programs": ["pantry"]
  },
  {
    "id": "5",
    "name": "GraceWay Village",
    "coordinates": { "lat": 27.4368, "lng": -80.3652 },
    "distance": "1.3",
    "address": "1780 Hartman Road",
    "city": "Fort Pierce",
    "state": "FL",
    "zip": "34947",
    "country": "United States",
    "phone": "772-925-3074",
    "directionsUrl": "https://www.google.com/maps/dir//1780+Hartman+Road,+Fort+Pierce,+FL",
    "hours": "Sundays 4pm - 6pm",
    "programs": ["pantry"]
  },
  {
    "id": "6",
    "name": "GraceWay Village - Cafe",
    "coordinates": { "lat": 27.4366, "lng": -80.365 },
    "distance": "1.3",
    "address": "1780 Hartman Road",
    "city": "Fort Pierce",
    "state": "FL",
    "zip": "34947",
    "country": "United States",
    "phone": "772-925-3074",
    "directionsUrl": "https://www.google.com/maps/dir//1780+Hartman+Road,+Fort+Pierce,+FL",
    "hours": "Soup Kitchen: Sundays, Tuesdays, Wednesdays, & Thursdays 5pm - 6pm",
    "programs": ["soup-kitchen"]
  },
  {
    "id": "7",
    "name": "One Lord One Faith Christian Ministries",
    "coordinates": { "lat": 27.4424, "lng": -80.3511 },
    "distance": "1.4",
    "address": "2102 Avenue Q",
    "city": "Fort Pierce",
    "state": "FL",
    "zip": "34950",
    "country": "United States",
    "phone": "",
    "directionsUrl": "https://www.google.com/maps/dir//2102+Avenue+Q,+Fort+Pierce,+FL",
    "hours": "Thursdays 2:30pm - 4:30pm",
    "programs": ["pantry"]
  },
  {
    "id": "8",
    "name": "Florida Community Health Center",
    "coordinates": { "lat": 27.4462, "lng": -80.3354 },
    "distance": "1.4",
    "address": "1505 Delaware Avenue",
    "city": "Fort Pierce",
    "state": "FL",
    "zip": "34950",
    "country": "United States",
    "phone": "772-461-1402",
    "directionsUrl": "https://www.google.com/maps/dir//1505+Delaware+Avenue,+Fort+Pierce,+FL",
    "hours": "Mondays 8am - 6pm, Tuesday - Friday 8am - 8pm, Saturdays 8am - 5pm",
    "programs": ["baby-item-pantry"]
  }
]
